{
    "features": [{
        "geometry": {
            "coordinates": [7.005277777777778, 43.564166666666665],
            "type": "Point"
        },
        "properties": {
            "codetype": "HP",
            "elevation": "375",
            "name": "CANNES BROUSSAILLES HOPITAL",
            "vertical_unit": "FT"
        },
        "type": "Feature"
    }, {
        "geometry": {
            "coordinates": [4.363333333333333, 45.48222222222223],
            "type": "Point"
        },
        "properties": {
            "codetype": "HP",
            "elevation": "1507",
            "name": "SAINT ETIENNE HOPITAL NORD",
            "vertical_unit": "FT"
        },
        "type": "Feature"
    }, {
        "geometry": {
            "coordinates": [2.5705555555555555, 46.35277777777778],
            "type": "Point"
        },
        "properties": {
            "codeicao": "LFLT",
            "codetype": "AD",
            "elevation": "771",
            "name": "MONTLUCON DOMERAT",
            "vertical_unit": "FT"
        },
        "type": "Feature"
    }, {
        "geometry": {
            "coordinates": [5.516666666666667, 47.31666666666667],
            "type": "Point"
        },
        "properties": {
            "codeicao": "LFYH",
            "codetype": "AD",
            "elevation": "682",
            "name": "BROYE LES PESMES",
            "vertical_unit": "FT"
        },
        "type": "Feature"
    }, {
        "geometry": {
            "coordinates": [5.66388888888889, 48.086111111111116],
            "type": "Point"
        },
        "properties": {
            "codeicao": "LFYD",
            "codetype": "AD",
            "elevation": "1280",
            "name": "DAMBLAIN",
            "vertical_unit": "FT"
        },
        "type": "Feature"
    }, {
        "geometry": {
            "coordinates": [3.833888888888889, 48.66],
            "type": "Point"
        },
        "properties": {
            "codeicao": "LFYM",
            "codetype": "AD",
            "elevation": "329",
            "name": "MARIGNY LE GRAND",
            "vertical_unit": "FT"
        },
        "type": "Feature"
    }, {
        "geometry": {
            "coordinates": [2.332222222222222, 48.596111111111114],
            "type": "Point"
        },
        "properties": {
            "codeicao": "LFPY",
            "codetype": "AD",
            "elevation": "270",
            "name": "BRETIGNY SUR ORGE",
            "vertical_unit": "FT"
        },
        "type": "Feature"
    }, {
        "geometry": {
            "coordinates": [5.493888888888889, 44.052499999999995],
            "type": "Point"
        },
        "properties": {
            "codeicao": "LFXI",
            "codetype": "AD",
            "elevation": "2736",
            "name": "SAINT CHRISTOL",
            "vertical_unit": "FT"
        },
        "type": "Feature"
    }, {
        "geometry": {
            "coordinates": [1.0286111111111111, 49.25277777777778],
            "type": "Point"
        },
        "properties": {
            "codetype": "AD",
            "name": "SAINT CYR LA CAMPAGNE"
        },
        "type": "Feature"
    }, {
        "geometry": {
            "coordinates": [-2.8052777777777775, 48.51305555555555],
            "type": "Point"
        },
        "properties": {
            "codetype": "AD",
            "name": "SAINT BRIEUC"
        },
        "type": "Feature"
    }, {
        "geometry": {
            "coordinates": [2.2083333333333335, 43.27972222222222],
            "type": "Point"
        },
        "properties": {
            "codetype": "AD",
            "elevation": "568",
            "name": "MOUSSOULENS",
            "vertical_unit": "FT"
        },
        "type": "Feature"
    }, {
        "geometry": {
            "coordinates": [3.001388888888889, 42.79805555555556],
            "type": "Point"
        },
        "properties": {
            "codetype": "AD",
            "name": "PERPIGNAN LA SALANQUE"
        },
        "type": "Feature"
    }, {
        "geometry": {
            "coordinates": [6.277805555555555, 45.37502777777778],
            "type": "Point"
        },
        "properties": {
            "codeicao": "LFKR",
            "codetype": "AD",
            "elevation": "1399",
            "name": "SAINT REMY DE MAURIENNE",
            "vertical_unit": "FT"
        },
        "type": "Feature"
    }, {
        "geometry": {
            "coordinates": [-1.6436111111111111, 47.791666666666664],
            "type": "Point"
        },
        "properties": {
            "codeicao": "LFSS",
            "codetype": "AD",
            "elevation": "312",
            "name": "SAINT SULPICE DES LANDES",
            "vertical_unit": "FT"
        },
        "type": "Feature"
    }, {
        "geometry": {
            "coordinates": [5.038888888888889, 43.41305555555555],
            "type": "Point"
        },
        "properties": {
            "codetype": "HP",
            "elevation": "178",
            "name": "MARTIGUES CENTRE HOSPITALIER",
            "vertical_unit": "FT"
        },
        "type": "Feature"
    }, {
        "geometry": {
            "coordinates": [4.4125000000000005, 48.066111111111105],
            "type": "Point"
        },
        "properties": {
            "codeicao": "LFFR",
            "codetype": "AD",
            "elevation": "938",
            "name": "BAR SUR SEINE",
            "vertical_unit": "FT"
        },
        "type": "Feature"
    }, {
        "geometry": {
            "coordinates": [2.424444444444444, 48.35027777777778],
            "type": "Point"
        },
        "properties": {
            "codeicao": "LFFB",
            "codetype": "AD",
            "elevation": "419",
            "name": "BUNO BONNEVAUX",
            "vertical_unit": "FT"
        },
        "type": "Feature"
    }, {
        "geometry": {
            "coordinates": [2.191111111111111, 48.156388888888884],
            "type": "Point"
        },
        "properties": {
            "codeicao": "LFFP",
            "codetype": "AD",
            "elevation": "391",
            "name": "PITHIVIERS",
            "vertical_unit": "FT"
        },
        "type": "Feature"
    }, {
        "geometry": {
            "coordinates": [1.2508333333333332, 48.8975],
            "type": "Point"
        },
        "properties": {
            "codeicao": "LFFD",
            "codetype": "AD",
            "elevation": "491",
            "name": "SAINT ANDRE DE L'EURE",
            "vertical_unit": "FT"
        },
        "type": "Feature"
    }, {
        "geometry": {
            "coordinates": [3.278888888888889, 48.7575],
            "type": "Point"
        },
        "properties": {
            "codeicao": "LFFG",
            "codetype": "AD",
            "elevation": "536",
            "name": "LA FERTE GAUCHER",
            "vertical_unit": "FT"
        },
        "type": "Feature"
    }, {
        "geometry": {
            "coordinates": [4.7138888888888895, 46.14111111111111],
            "type": "Point"
        },
        "properties": {
            "codeicao": "LFHW",
            "codetype": "AD",
            "elevation": "705",
            "name": "BELLEVILLE VILLIE MORGON",
            "vertical_unit": "FT"
        },
        "type": "Feature"
    }, {
        "geometry": {
            "coordinates": [-1.1777777777777778, 43.733333333333334],
            "type": "Point"
        },
        "properties": {
            "codetype": "HP",
            "elevation": "151",
            "name": "DAX TINON",
            "vertical_unit": "FT"
        },
        "type": "Feature"
    }, {
        "geometry": {
            "coordinates": [4.5344444444444445, 45.49194444444444],
            "type": "Point"
        },
        "properties": {
            "codeicao": "LFHG",
            "codetype": "AD",
            "elevation": "1307",
            "name": "SAINT CHAMOND L'HORME",
            "vertical_unit": "FT"
        },
        "type": "Feature"
    }, {
        "geometry": {
            "coordinates": [4.332777777777777, 44.44472222222222],
            "type": "Point"
        },
        "properties": {
            "codeicao": "LFHF",
            "codetype": "AD",
            "elevation": "353",
            "name": "RUOMS",
            "vertical_unit": "FT"
        },
        "type": "Feature"
    }, {
        "geometry": {
            "coordinates": [5.383888888888889, 45.55888888888889],
            "type": "Point"
        },
        "properties": {
            "codeicao": "LFKP",
            "codetype": "AD",
            "elevation": "1053",
            "name": "LA TOUR DU PIN CESSIEU",
            "vertical_unit": "FT"
        },
        "type": "Feature"
    }, {
        "geometry": {
            "coordinates": [-1.4797222222222224, 43.4825],
            "type": "Point"
        },
        "properties": {
            "codetype": "HP",
            "elevation": "150",
            "name": "BAYONNE CENTRE HOSPITALIER DE LA COTE BASQUE",
            "vertical_unit": "FT"
        },
        "type": "Feature"
    }, {
        "geometry": {
            "coordinates": [-4.491666666666667, 48.38055555555555],
            "type": "Point"
        },
        "properties": {
            "codetype": "HP",
            "elevation": "0",
            "name": "BREST AMIRAUTE",
            "vertical_unit": "FT"
        },
        "type": "Feature"
    }, {
        "geometry": {
            "coordinates": [-1.1569444444444443, 43.916666666666664],
            "type": "Point"
        },
        "properties": {
            "codetype": "HP",
            "elevation": "184",
            "name": "DAX CASTETS",
            "vertical_unit": "FT"
        },
        "type": "Feature"
    }, {
        "geometry": {
            "coordinates": [-1.2555555555555555, 43.80694444444444],
            "type": "Point"
        },
        "properties": {
            "codetype": "HP",
            "elevation": "121",
            "name": "DAX AZUR",
            "vertical_unit": "FT"
        },
        "type": "Feature"
    }, {
        "geometry": {
            "coordinates": [-0.9194444444444444, 43.77777777777778],
            "type": "Point"
        },
        "properties": {
            "codetype": "HP",
            "elevation": "53",
            "name": "DAX PONTONX",
            "vertical_unit": "FT"
        },
        "type": "Feature"
    }, {
        "geometry": {
            "coordinates": [-1.1111111111111112, 43.82222222222222],
            "type": "Point"
        },
        "properties": {
            "codetype": "HP",
            "elevation": "253",
            "name": "DAX HERM",
            "vertical_unit": "FT"
        },
        "type": "Feature"
    }, {
        "geometry": {
            "coordinates": [4.696638888888889, 45.710638888888894],
            "type": "Point"
        },
        "properties": {
            "codeicao": "LFKL",
            "codetype": "AD",
            "elevation": "1040",
            "name": "LYON BRINDAS",
            "vertical_unit": "FT"
        },
        "type": "Feature"
    }, {
        "geometry": {
            "coordinates": [1.05, 43.200833333333335],
            "type": "Point"
        },
        "properties": {
            "codeicao": "LFJH",
            "codetype": "AD",
            "elevation": "816",
            "name": "CAZERES PALAMINY",
            "vertical_unit": "FT"
        },
        "type": "Feature"
    }, {
        "geometry": {
            "coordinates": [5.153888888888889, 44.695277777777775],
            "type": "Point"
        },
        "properties": {
            "codeicao": "LFJF",
            "codetype": "AD",
            "elevation": "807",
            "name": "AUBENASSON",
            "vertical_unit": "FT"
        },
        "type": "Feature"
    }, {
        "geometry": {
            "coordinates": [-1.4222222222222223, 43.337500000000006],
            "type": "Point"
        },
        "properties": {
            "codeicao": "LFIX",
            "codetype": "AD",
            "elevation": "607",
            "name": "ITXASSOU",
            "vertical_unit": "FT"
        },
        "type": "Feature"
    }, {
        "geometry": {
            "coordinates": [1.7241666666666668, 43.611111111111114],
            "type": "Point"
        },
        "properties": {
            "codeicao": "LFIT",
            "codetype": "AD",
            "elevation": "526",
            "name": "TOULOUSE BOURG SAINT BERNARD",
            "vertical_unit": "FT"
        },
        "type": "Feature"
    }, {
        "geometry": {
            "coordinates": [-1.64, 49.653888888888886],
            "type": "Point"
        },
        "properties": {
            "codetype": "HP",
            "elevation": "26",
            "name": "CHERBOURG ARSENAL-PREMAR",
            "vertical_unit": "FT"
        },
        "type": "Feature"
    }, {
        "geometry": {
            "coordinates": [3.2375000000000003, 49.626111111111115],
            "type": "Point"
        },
        "properties": {
            "codetype": "HP",
            "elevation": "180",
            "name": "CHAUNY CENTRE HOSPITALIER",
            "vertical_unit": "FT"
        },
        "type": "Feature"
    }, {
        "geometry": {
            "coordinates": [2.6347222222222224, 47.69027777777777],
            "type": "Point"
        },
        "properties": {
            "codetype": "HP",
            "elevation": "556",
            "name": "GIEN CENTRE HOSPITALIER",
            "vertical_unit": "FT"
        },
        "type": "Feature"
    }, {
        "geometry": {
            "coordinates": [-0.2436111111111111, 44.54472222222222],
            "type": "Point"
        },
        "properties": {
            "codetype": "HP",
            "elevation": "121",
            "name": "LANGON CENTRE HOSPITALIER",
            "vertical_unit": "FT"
        },
        "type": "Feature"
    }, {
        "geometry": {
            "coordinates": [1.9088888888888889, 48.843611111111116],
            "type": "Point"
        },
        "properties": {
            "codeicao": "LFPF",
            "codetype": "AD",
            "elevation": "371",
            "name": "BEYNES THIVERVAL",
            "vertical_unit": "FT"
        },
        "type": "Feature"
    }, {
        "geometry": {
            "coordinates": [2.7955555555555556, 49.38972222222222],
            "type": "Point"
        },
        "properties": {
            "codetype": "HP",
            "elevation": "108",
            "name": "COMPIEGNE CENTRE HOSPITALIER",
            "vertical_unit": "FT"
        },
        "type": "Feature"
    }, {
        "geometry": {
            "coordinates": [9.428333333333333, 42.68222222222222],
            "type": "Point"
        },
        "properties": {
            "codetype": "HP",
            "elevation": "443",
            "name": "BASTIA CENTRE HOSPITALIER",
            "vertical_unit": "FT"
        },
        "type": "Feature"
    }, {
        "geometry": {
            "coordinates": [1.9947222222222223, 46.95944444444445],
            "type": "Point"
        },
        "properties": {
            "codetype": "HP",
            "elevation": "465",
            "name": "ISSOUDUN CENTRE HOSPITALIER",
            "vertical_unit": "FT"
        },
        "type": "Feature"
    }, {
        "geometry": {
            "coordinates": [-0.6608333333333334, 44.78527777777778],
            "type": "Point"
        },
        "properties": {
            "codetype": "HP",
            "elevation": "275",
            "name": "BORDEAUX HAUT LEVEQUE CENTRE HOSPITALIER",
            "vertical_unit": "FT"
        },
        "type": "Feature"
    }, {
        "geometry": {
            "coordinates": [1.9891666666666667, 43.406388888888884],
            "type": "Point"
        },
        "properties": {
            "codeicao": "LFMG",
            "codetype": "AD",
            "elevation": "1468",
            "name": "MONTAGNE NOIRE",
            "vertical_unit": "FT"
        },
        "type": "Feature"
    }, {
        "geometry": {
            "coordinates": [1.863888888888889, 48.981944444444444],
            "type": "Point"
        },
        "properties": {
            "codetype": "HP",
            "elevation": "82",
            "name": "FLINS",
            "vertical_unit": "FT"
        },
        "type": "Feature"
    }, {
        "geometry": {
            "coordinates": [4.951944444444445, 43.54388888888889],
            "type": "Point"
        },
        "properties": {
            "codetype": "HP",
            "elevation": "72",
            "name": "ISTRES S.E.P.",
            "vertical_unit": "FT"
        },
        "type": "Feature"
    }, {
        "geometry": {
            "coordinates": [1.0627777777777778, 47.79416666666666],
            "type": "Point"
        },
        "properties": {
            "codetype": "HP",
            "elevation": "304",
            "name": "VENDOME CENTRE HOSPITALIER",
            "vertical_unit": "FT"
        },
        "type": "Feature"
    }, {
        "geometry": {
            "coordinates": [0.8916666666666666, 48.74444444444445],
            "type": "Point"
        },
        "properties": {
            "codetype": "HP",
            "elevation": "597",
            "name": "VERNEUIL SUR AVRE CENTRE HOSPITALIER",
            "vertical_unit": "FT"
        },
        "type": "Feature"
    }, {
        "geometry": {
            "coordinates": [3.465555555555556, 44.285555555555554],
            "type": "Point"
        },
        "properties": {
            "codeicao": "LFNO",
            "codetype": "AD",
            "elevation": "3055",
            "name": "FLORAC SAINTE ENIMIE",
            "vertical_unit": "FT"
        },
        "type": "Feature"
    }, {
        "geometry": {
            "coordinates": [3.7816666666666667, 43.80027777777777],
            "type": "Point"
        },
        "properties": {
            "codeicao": "LFNL",
            "codetype": "AD",
            "elevation": "602",
            "name": "SAINT MARTIN DE LONDRES",
            "vertical_unit": "FT"
        },
        "type": "Feature"
    }, {
        "geometry": {
            "coordinates": [2.054722222222222, 42.91027777777778],
            "type": "Point"
        },
        "properties": {
            "codeicao": "LFNW",
            "codetype": "AD",
            "elevation": "1610",
            "name": "PUIVERT",
            "vertical_unit": "FT"
        },
        "type": "Feature"
    }, {
        "geometry": {
            "coordinates": [4.894444444444444, 43.770833333333336],
            "type": "Point"
        },
        "properties": {
            "codeicao": "LFNZ",
            "codetype": "AD",
            "elevation": "395",
            "name": "LE MAZET DE ROMANIN",
            "vertical_unit": "FT"
        },
        "type": "Feature"
    }, {
        "geometry": {
            "coordinates": [2.0766666666666667, 48.78333333333333],
            "type": "Point"
        },
        "properties": {
            "codetype": "HP",
            "elevation": "518",
            "name": "GUYANCOURT LES SANGLIERS",
            "vertical_unit": "FT"
        },
        "type": "Feature"
    }, {
        "geometry": {
            "coordinates": [-1.1647222222222222, 45.00694444444444],
            "type": "Point"
        },
        "properties": {
            "codetype": "HP",
            "elevation": "52",
            "name": "LACANAU LE HUGA",
            "vertical_unit": "FT"
        },
        "type": "Feature"
    }, {
        "geometry": {
            "coordinates": [-0.6575, 45.056666666666665],
            "type": "Point"
        },
        "properties": {
            "codetype": "HP",
            "elevation": "10",
            "name": "MARGAUX RELAIS DE MARGAUX",
            "vertical_unit": "FT"
        },
        "type": "Feature"
    }, {
        "geometry": {
            "coordinates": [6.535555555555556, 45.48361111111111],
            "type": "Point"
        },
        "properties": {
            "codetype": "HP",
            "elevation": "1621",
            "name": "MOUTIERS CENTRE HOSPITALIER",
            "vertical_unit": "FT"
        },
        "type": "Feature"
    }, {
        "geometry": {
            "coordinates": [1.7255555555555557, 43.37388888888889],
            "type": "Point"
        },
        "properties": {
            "codetype": "HP",
            "elevation": "623",
            "name": "RENNEVILLE",
            "vertical_unit": "FT"
        },
        "type": "Feature"
    }, {
        "geometry": {
            "coordinates": [-2.7511111111111113, 48.490833333333335],
            "type": "Point"
        },
        "properties": {
            "codetype": "HP",
            "elevation": "354",
            "name": "SAINT BRIEUC CENTRE HOSPITALIER",
            "vertical_unit": "FT"
        },
        "type": "Feature"
    }, {
        "geometry": {
            "coordinates": [7.011666666666667, 47.65555555555555],
            "type": "Point"
        },
        "properties": {
            "codeicao": "LFSQ",
            "codetype": "AD",
            "name": "BELFORT FONTAINE"
        },
        "type": "Feature"
    }, {
        "geometry": {
            "coordinates": [4.011111111111111, 44.24305555555556],
            "type": "Point"
        },
        "properties": {
            "codeicao": "LFTN",
            "codetype": "AD",
            "elevation": "1623",
            "name": "LA GRAND'COMBE",
            "vertical_unit": "FT"
        },
        "type": "Feature"
    }, {
        "geometry": {
            "coordinates": [-1.0772222222222223, 45.823888888888895],
            "type": "Point"
        },
        "properties": {
            "codeicao": "LFJI",
            "codetype": "AD",
            "elevation": "29",
            "name": "MARENNES",
            "vertical_unit": "FT"
        },
        "type": "Feature"
    }, {
        "geometry": {
            "coordinates": [-0.655, 45.74777777777778],
            "type": "Point"
        },
        "properties": {
            "codetype": "HP",
            "elevation": "135",
            "name": "SAINTES CENTRE HOSPITALIER",
            "vertical_unit": "FT"
        },
        "type": "Feature"
    }, {
        "geometry": {
            "coordinates": [-2.0083333333333333, 48.638888888888886],
            "type": "Point"
        },
        "properties": {
            "codetype": "HP",
            "elevation": "26",
            "name": "SAINT MALO CENTRE HOSPITALIER",
            "vertical_unit": "FT"
        },
        "type": "Feature"
    }, {
        "geometry": {
            "coordinates": [5.683333333333334, 45.1],
            "type": "Point"
        },
        "properties": {
            "codetype": "HP",
            "elevation": "722",
            "name": "VARCES QUARTIER REYNIES",
            "vertical_unit": "FT"
        },
        "type": "Feature"
    }, {
        "geometry": {
            "coordinates": [6.991666666666667, 45.43277777777777],
            "type": "Point"
        },
        "properties": {
            "codetype": "HP",
            "elevation": "8366",
            "name": "VAL D'ISERE TETE DE SOLAISE",
            "vertical_unit": "FT"
        },
        "type": "Feature"
    }, {
        "geometry": {
            "coordinates": [0.3888888888888889, 43.470555555555556],
            "type": "Point"
        },
        "properties": {
            "codetype": "AD",
            "elevation": "688",
            "name": "BERDOUES",
            "vertical_unit": "FT"
        },
        "type": "Feature"
    }, {
        "geometry": {
            "coordinates": [0.9822222222222222, 43.87722222222222],
            "type": "Point"
        },
        "properties": {
            "codetype": "AD",
            "name": "BEAUMONT DE LOMAGNE"
        },
        "type": "Feature"
    }, {
        "geometry": {
            "coordinates": [0.6699999999999999, 46.94888888888889],
            "type": "Point"
        },
        "properties": {
            "codetype": "AD",
            "name": "BUXEUIL ST REMY / CREUSE"
        },
        "type": "Feature"
    }, {
        "geometry": {
            "coordinates": [1.0833333333333333, 44.3],
            "type": "Point"
        },
        "properties": {
            "codetype": "AD",
            "name": "BOULOC"
        },
        "type": "Feature"
    }, {
        "geometry": {
            "coordinates": [1.7305555555555556, 44.225],
            "type": "Point"
        },
        "properties": {
            "codetype": "AD",
            "name": "CAYLUS"
        },
        "type": "Feature"
    }, {
        "geometry": {
            "coordinates": [2.066666666666667, 44.93333333333333],
            "type": "Point"
        },
        "properties": {
            "codetype": "AD",
            "name": "CALVIAC"
        },
        "type": "Feature"
    }, {
        "geometry": {
            "coordinates": [5.819166666666667, 45.962500000000006],
            "type": "Point"
        },
        "properties": {
            "codetype": "AD",
            "elevation": "1175",
            "name": "CORBONOD",
            "vertical_unit": "FT"
        },
        "type": "Feature"
    }, {
        "geometry": {
            "coordinates": [4.617500000000001, 47.609722222222224],
            "type": "Point"
        },
        "properties": {
            "codeicao": "LFSY",
            "codetype": "AD",
            "name": "CESSEY BAIGNEUX LES JUIFS"
        },
        "type": "Feature"
    }, {
        "geometry": {
            "coordinates": [5.990833333333334, 44.058611111111105],
            "type": "Point"
        },
        "properties": {
            "codeicao": "LFMX",
            "codetype": "AD",
            "elevation": "1507",
            "name": "CHATEAU ARNOUX SAINT AUBAN",
            "vertical_unit": "FT"
        },
        "type": "Feature"
    }, {
        "geometry": {
            "coordinates": [3.7097222222222226, 49.59722222222222],
            "type": "Point"
        },
        "properties": {
            "codetype": "AD",
            "name": "LAON ATHIES"
        },
        "type": "Feature"
    }, {
        "geometry": {
            "coordinates": [3.5638888888888887, 49.63333333333333],
            "type": "Point"
        },
        "properties": {
            "codetype": "AD",
            "name": "LAON COUVRON"
        },
        "type": "Feature"
    }, {
        "geometry": {
            "coordinates": [1.1, 48.64611111111111],
            "type": "Point"
        },
        "properties": {
            "codetype": "AD",
            "name": "DREUX SENONCHES"
        },
        "type": "Feature"
    }, {
        "geometry": {
            "coordinates": [-0.9944444444444444, 45.93194444444444],
            "type": "Point"
        },
        "properties": {
            "codetype": "AD",
            "name": "ROCHEFORT SOUBISE"
        },
        "type": "Feature"
    }, {
        "geometry": {
            "coordinates": [6.712777777777778, 49.026666666666664],
            "type": "Point"
        },
        "properties": {
            "codetype": "AD",
            "elevation": "817",
            "name": "GROSTENQUIN",
            "vertical_unit": "FT"
        },
        "type": "Feature"
    }, {
        "geometry": {
            "coordinates": [1.4049999999999998, 46.453611111111115],
            "type": "Point"
        },
        "properties": {
            "codetype": "AD",
            "name": "SAINT BENOIT DU SAULT"
        },
        "type": "Feature"
    }, {
        "geometry": {
            "coordinates": [2.0344444444444445, 45.708333333333336],
            "type": "Point"
        },
        "properties": {
            "codetype": "AD",
            "name": "PEYRELEVADE"
        },
        "type": "Feature"
    }, {
        "geometry": {
            "coordinates": [6.7363888888888885, 43.4175],
            "type": "Point"
        },
        "properties": {
            "codetype": "AD",
            "name": "FREJUS SAINT RAPHAEL"
        },
        "type": "Feature"
    }, {
        "geometry": {
            "coordinates": [4.433333333333334, 49.916666666666664],
            "type": "Point"
        },
        "properties": {
            "codetype": "AD",
            "name": "ROCROI REGNIOWEZ"
        },
        "type": "Feature"
    }, {
        "geometry": {
            "coordinates": [0.8583333333333333, 43.38333333333333],
            "type": "Point"
        },
        "properties": {
            "codetype": "AD",
            "elevation": "918",
            "name": "L'ISLE EN DODON",
            "vertical_unit": "FT"
        },
        "type": "Feature"
    }, {
        "geometry": {
            "coordinates": [1.9166666666666665, 45.33111111111111],
            "type": "Point"
        },
        "properties": {
            "codetype": "AD",
            "name": "EYREIN"
        },
        "type": "Feature"
    }, {
        "geometry": {
            "coordinates": [-1.575, 46.495],
            "type": "Point"
        },
        "properties": {
            "codetype": "AD",
            "name": "TALMONT VENDEE AIR PARK"
        },
        "type": "Feature"
    }, {
        "geometry": {
            "coordinates": [6.8630555555555555, 45.91444444444444],
            "type": "Point"
        },
        "properties": {
            "codetype": "HP",
            "elevation": "3399",
            "name": "CHAMONIX CENTRE HOSPITALIER",
            "vertical_unit": "FT"
        },
        "type": "Feature"
    }, {
        "geometry": {
            "coordinates": [-0.7444444444444444, 43.120555555555555],
            "type": "Point"
        },
        "properties": {
            "codetype": "HP",
            "elevation": "1076",
            "name": "ESCARY (DOMAINE) ARAMITS",
            "vertical_unit": "FT"
        },
        "type": "Feature"
    }, {
        "geometry": {
            "coordinates": [2.5691666666666664, 49.67305555555555],
            "type": "Point"
        },
        "properties": {
            "codeicao": "LFAR",
            "codetype": "AD",
            "elevation": "358",
            "name": "MONTDIDIER",
            "vertical_unit": "FT"
        },
        "type": "Feature"
    }, {
        "geometry": {
            "coordinates": [-1.83, 49.62277777777778],
            "type": "Point"
        },
        "properties": {
            "codeicao": "LFAU",
            "codetype": "AD",
            "elevation": "458",
            "name": "VAUVILLE",
            "vertical_unit": "FT"
        },
        "type": "Feature"
    }, {
        "geometry": {
            "coordinates": [-0.0019444444444444444, 47.69277777777778],
            "type": "Point"
        },
        "properties": {
            "codeicao": "LFAL",
            "codetype": "AD",
            "elevation": "120",
            "name": "LA FLECHE THOREE LES PINS",
            "vertical_unit": "FT"
        },
        "type": "Feature"
    }, {
        "geometry": {
            "coordinates": [0.9188888888888889, 45.902499999999996],
            "type": "Point"
        },
        "properties": {
            "codeicao": "LFBJ",
            "codetype": "AD",
            "elevation": "903",
            "name": "SAINT JUNIEN",
            "vertical_unit": "FT"
        },
        "type": "Feature"
    }, {
        "geometry": {
            "coordinates": [3.5577777777777775, 47.80444444444444],
            "type": "Point"
        },
        "properties": {
            "codetype": "HP",
            "elevation": "528",
            "name": "AUXERRE CENTRE HOSPITALIER",
            "vertical_unit": "FT"
        },
        "type": "Feature"
    }, {
        "geometry": {
            "coordinates": [6.1513888888888895, 48.64472222222222],
            "type": "Point"
        },
        "properties": {
            "codetype": "HP",
            "elevation": "1335",
            "name": "NANCY BRABOIS CENTRE HOSPITALIER",
            "vertical_unit": "FT"
        },
        "type": "Feature"
    }, {
        "geometry": {
            "coordinates": [-1.311388888888889, 45.95777777777778],
            "type": "Point"
        },
        "properties": {
            "codeicao": "LFDP",
            "codetype": "AD",
            "elevation": "22",
            "name": "SAINT PIERRE D'OLERON",
            "vertical_unit": "FT"
        },
        "type": "Feature"
    }, {
        "geometry": {
            "coordinates": [4.9752777777777775, 46.561388888888885],
            "type": "Point"
        },
        "properties": {
            "codeicao": "LFFX",
            "codetype": "AD",
            "elevation": "689",
            "name": "TOURNUS CUISERY",
            "vertical_unit": "FT"
        },
        "type": "Feature"
    }, {
        "geometry": {
            "coordinates": [-2.1952777777777777, 49.20777777777778],
            "type": "Point"
        },
        "properties": {
            "codeicao": "EGJJ",
            "codetype": "AD",
            "elevation": "277",
            "name": "JERSEY",
            "vertical_unit": "FT"
        },
        "type": "Feature"
    }, {
        "geometry": {
            "coordinates": [5.761666666666667, 44.79361111111111],
            "type": "Point"
        },
        "properties": {
            "codeicao": "LFKK",
            "codetype": "AD",
            "elevation": "2992",
            "name": "MONTMEILLEUR",
            "vertical_unit": "FT"
        },
        "type": "Feature"
    }, {
        "geometry": {
            "coordinates": [-0.04138888888888889, 43.05083333333333],
            "type": "Point"
        },
        "properties": {
            "codetype": "HP",
            "elevation": "1310",
            "name": "GER",
            "vertical_unit": "FT"
        },
        "type": "Feature"
    }, {
        "geometry": {
            "coordinates": [5.069055555555555, 47.32127777777778],
            "type": "Point"
        },
        "properties": {
            "codetype": "HP",
            "elevation": "972",
            "name": "DIJON BOCAGE CENTRE HOSPITALIER UNIVERSITAIRE",
            "vertical_unit": "FT"
        },
        "type": "Feature"
    }, {
        "geometry": {
            "coordinates": [0.0825, 48.424166666666665],
            "type": "Point"
        },
        "properties": {
            "codetype": "HP",
            "elevation": "435",
            "name": "ALENCON CENTRE HOSPITALIER",
            "vertical_unit": "FT"
        },
        "type": "Feature"
    }, {
        "geometry": {
            "coordinates": [-1.1880555555555556, 47.74055555555556],
            "type": "Point"
        },
        "properties": {
            "codeicao": "LFTQ",
            "codetype": "AD",
            "elevation": "322",
            "name": "CHATEAUBRIANT POUANCE",
            "vertical_unit": "FT"
        },
        "type": "Feature"
    }, {
        "geometry": {
            "coordinates": [6.944444444444445, 45.97],
            "type": "Point"
        },
        "properties": {
            "codetype": "HP",
            "elevation": "6368",
            "name": "CHAMONIX CROIX DE LOGNAN",
            "vertical_unit": "FT"
        },
        "type": "Feature"
    }, {
        "geometry": {
            "coordinates": [3.152222222222222, 50.219166666666666],
            "type": "Point"
        },
        "properties": {
            "codeicao": "LFQI",
            "codetype": "AD",
            "elevation": "257",
            "name": "CAMBRAI EPINOY",
            "vertical_unit": "FT"
        },
        "type": "Feature"
    }, {
        "geometry": {
            "coordinates": [6.168333333333334, 44.07055555555556],
            "type": "Point"
        },
        "properties": {
            "codetype": "HP",
            "elevation": "1975",
            "name": "DIGNE LES BAINS H1 CENTRE HOSPITALIER",
            "vertical_unit": "FT"
        },
        "type": "Feature"
    }, {
        "geometry": {
            "coordinates": [6.171944444444445, 44.071111111111115],
            "type": "Point"
        },
        "properties": {
            "codetype": "HP",
            "elevation": "1867",
            "name": "DIGNE LES BAINS H2 CENTRE HOSPITALIER",
            "vertical_unit": "FT"
        },
        "type": "Feature"
    }, {
        "geometry": {
            "coordinates": [2.8885833333333335, 42.726194444444445],
            "type": "Point"
        },
        "properties": {
            "codetype": "HP",
            "elevation": "190",
            "name": "PERPIGNAN CENTRE HOSPITALIER",
            "vertical_unit": "FT"
        },
        "type": "Feature"
    }, {
        "geometry": {
            "coordinates": [1.5047222222222223, 48.419999999999995],
            "type": "Point"
        },
        "properties": {
            "codetype": "HP",
            "elevation": "488",
            "name": "CHARTRES CENTRE HOSPITALIER",
            "vertical_unit": "FT"
        },
        "type": "Feature"
    }, {
        "geometry": {
            "coordinates": [7.3997222222222225, 47.92194444444444],
            "type": "Point"
        },
        "properties": {
            "codeicao": "LFSC",
            "codetype": "AD",
            "elevation": "693",
            "name": "COLMAR-MEYENHEIM",
            "vertical_unit": "FT"
        },
        "type": "Feature"
    }, {
        "geometry": {
            "coordinates": [-1.2380555555555557, 46.462500000000006],
            "type": "Point"
        },
        "properties": {
            "codetype": "AD",
            "name": "LUCON CHASNAIS"
        },
        "type": "Feature"
    }, {
        "geometry": {
            "coordinates": [2.1277777777777778, 48.83083333333334],
            "type": "Point"
        },
        "properties": {
            "codetype": "HP",
            "elevation": "492",
            "name": "VERSAILLES CENTRE HOSPITALIER",
            "vertical_unit": "FT"
        },
        "type": "Feature"
    }, {
        "geometry": {
            "coordinates": [-151.83666666666667, -16.240000000000002],
            "type": "Point"
        },
        "properties": {
            "codeicao": "NTTU",
            "codetype": "AD",
            "name": "TUPAI"
        },
        "type": "Feature"
    }, {
        "geometry": {
            "coordinates": [5.472777777777778, 47.083333333333336],
            "type": "Point"
        },
        "properties": {
            "codetype": "HP",
            "elevation": "868",
            "name": "DOLE CENTRE HOSPITALIER",
            "vertical_unit": "FT"
        },
        "type": "Feature"
    }, {
        "geometry": {
            "coordinates": [4.050833333333333, 49.31027777777778],
            "type": "Point"
        },
        "properties": {
            "codeicao": "LFSR",
            "codetype": "AD",
            "description": "Centre de la piste.\\\\Centre of RWY.",
            "elevation": "314",
            "name": "REIMS CHAMPAGNE",
            "vertical_unit": "FT"
        },
        "type": "Feature"
    }, {
        "geometry": {
            "coordinates": [2.3613055555555555, 48.837138888888894],
            "type": "Point"
        },
        "properties": {
            "codetype": "HP",
            "elevation": "255",
            "name": "PARIS CENTRE HOSPITALIER LA PITIE SALPETRIERE",
            "vertical_unit": "FT"
        },
        "type": "Feature"
    }, {
        "geometry": {
            "coordinates": [4.515611111111111, 45.476055555555554],
            "type": "Point"
        },
        "properties": {
            "codetype": "HP",
            "elevation": "1249",
            "name": "SAINT CHAMOND CENTRE HOSPITALIER",
            "vertical_unit": "FT"
        },
        "type": "Feature"
    }, {
        "geometry": {
            "coordinates": [2.0652777777777778, 48.815],
            "type": "Point"
        },
        "properties": {
            "codetype": "HP",
            "elevation": "373",
            "name": "SAINT CYR L'ECOLE",
            "vertical_unit": "FT"
        },
        "type": "Feature"
    }, {
        "geometry": {
            "coordinates": [4.371361111111111, 45.42402777777777],
            "type": "Point"
        },
        "properties": {
            "codetype": "HP",
            "elevation": "2148",
            "name": "SAINT ETIENNE MALACUSSY",
            "vertical_unit": "FT"
        },
        "type": "Feature"
    }, {
        "geometry": {
            "coordinates": [0.3025833333333333, 49.47677777777778],
            "type": "Point"
        },
        "properties": {
            "codetype": "HP",
            "elevation": "17",
            "name": "SANDOUVILLE USINE RENAULT",
            "vertical_unit": "FT"
        },
        "type": "Feature"
    }, {
        "geometry": {
            "coordinates": [2.170361111111111, 48.839305555555555],
            "type": "Point"
        },
        "properties": {
            "codetype": "HP",
            "elevation": "446",
            "name": "GARCHES HOPITAL RAYMOND POINCARE",
            "vertical_unit": "FT"
        },
        "type": "Feature"
    }, {
        "geometry": {
            "coordinates": [6.928888888888889, 43.61961111111111],
            "type": "Point"
        },
        "properties": {
            "codetype": "HP",
            "elevation": "552",
            "name": "GRASSE HOPITAL CLAVARY",
            "vertical_unit": "FT"
        },
        "type": "Feature"
    }, {
        "geometry": {
            "coordinates": [4.449, 46.805],
            "type": "Point"
        },
        "properties": {
            "codetype": "HP",
            "elevation": "1180",
            "name": "LE CREUSOT CENTRE HOSPITALIER HOTEL DIEU",
            "vertical_unit": "FT"
        },
        "type": "Feature"
    }, {
        "geometry": {
            "coordinates": [3.1542499999999998, 46.85638888888889],
            "type": "Point"
        },
        "properties": {
            "codetype": "HP",
            "elevation": "751",
            "name": "MAGNY COURS CIRCUIT AUTOMOBILE",
            "vertical_unit": "FT"
        },
        "type": "Feature"
    }, {
        "geometry": {
            "coordinates": [-0.7152777777777777, 44.828611111111115],
            "type": "Point"
        },
        "properties": {
            "codetype": "HP",
            "elevation": "166",
            "name": "BORDEAUX MERIGNAC",
            "vertical_unit": "FT"
        },
        "type": "Feature"
    }, {
        "geometry": {
            "coordinates": [-0.5741666666666666, 44.8],
            "type": "Point"
        },
        "properties": {
            "codetype": "HP",
            "elevation": "62",
            "name": "BORDEAUX ROBERT PICQUE HOPITAL MILITAIRE",
            "vertical_unit": "FT"
        },
        "type": "Feature"
    }, {
        "geometry": {
            "coordinates": [1.6749166666666666, 48.999027777777776],
            "type": "Point"
        },
        "properties": {
            "codetype": "HP",
            "elevation": "92",
            "name": "MANTES LA JOLIE CENTRE HOSPITALIER FRANCOIS QUESNAY",
            "vertical_unit": "FT"
        },
        "type": "Feature"
    }, {
        "geometry": {
            "coordinates": [5.0480833333333335, 43.422555555555554],
            "type": "Point"
        },
        "properties": {
            "codetype": "HP",
            "elevation": "136",
            "name": "MARTIGUES CENTRE DE SECOURS",
            "vertical_unit": "FT"
        },
        "type": "Feature"
    }, {
        "geometry": {
            "coordinates": [6.192472222222222, 48.68538888888889],
            "type": "Point"
        },
        "properties": {
            "codetype": "HP",
            "elevation": "749",
            "name": "NANCY HOPITAL CENTRAL",
            "vertical_unit": "FT"
        },
        "type": "Feature"
    }, {
        "geometry": {
            "coordinates": [-1.607777777777778, 47.15694444444444],
            "type": "Point"
        },
        "properties": {
            "codetype": "HP",
            "elevation": "90",
            "name": "NANTES ATLANTIQUE",
            "vertical_unit": "FT"
        },
        "type": "Feature"
    }, {
        "geometry": {
            "coordinates": [7.215, 43.665277777777774],
            "type": "Point"
        },
        "properties": {
            "codetype": "HP",
            "elevation": "12",
            "name": "NICE COTE D'AZUR",
            "vertical_unit": "FT"
        },
        "type": "Feature"
    }, {
        "geometry": {
            "coordinates": [2.5477777777777777, 49.00972222222222],
            "type": "Point"
        },
        "properties": {
            "codetype": "HP",
            "elevation": "392",
            "name": "PARIS CHARLES DE GAULLE",
            "vertical_unit": "FT"
        },
        "type": "Feature"
    }, {
        "geometry": {
            "coordinates": [2.144833333333333, 49.05775],
            "type": "Point"
        },
        "properties": {
            "codetype": "HP",
            "elevation": "135",
            "name": "SAINT OUEN L'AUMONE HELIPORT (HELI INDUSTRIES)",
            "vertical_unit": "FT"
        },
        "type": "Feature"
    }, {
        "geometry": {
            "coordinates": [5.930166666666667, 43.13344444444444],
            "type": "Point"
        },
        "properties": {
            "codetype": "HP",
            "elevation": "226",
            "name": "TOULON SAINTE ANNE HOPITAL MILITAIRE",
            "vertical_unit": "FT"
        },
        "type": "Feature"
    }, {
        "geometry": {
            "coordinates": [1.3677777777777778, 43.635],
            "type": "Point"
        },
        "properties": {
            "codetype": "HP",
            "elevation": "499",
            "name": "TOULOUSE BLAGNAC",
            "vertical_unit": "FT"
        },
        "type": "Feature"
    }, {
        "geometry": {
            "coordinates": [1.448611111111111, 43.561249999999994],
            "type": "Point"
        },
        "properties": {
            "codetype": "HP",
            "elevation": "793",
            "name": "TOULOUSE RANGUEIL PECH DAVID",
            "vertical_unit": "FT"
        },
        "type": "Feature"
    }, {
        "geometry": {
            "coordinates": [6.376027777777777, 45.656888888888886],
            "type": "Point"
        },
        "properties": {
            "codetype": "HP",
            "elevation": "1084",
            "name": "ALBERTVILLE CRS ALPES",
            "vertical_unit": "FT"
        },
        "type": "Feature"
    }, {
        "geometry": {
            "coordinates": [2.7744166666666668, 47.996694444444444],
            "type": "Point"
        },
        "properties": {
            "codetype": "HP",
            "elevation": "353",
            "name": "AMILLY CENTRE HOSPITALIER",
            "vertical_unit": "FT"
        },
        "type": "Feature"
    }, {
        "geometry": {
            "coordinates": [1.5642777777777779, 50.41844444444444],
            "type": "Point"
        },
        "properties": {
            "codetype": "HP",
            "elevation": "42",
            "name": "BERCK SUR MER CENTRE HOSPITALIER HELIO-MARIN",
            "vertical_unit": "FT"
        },
        "type": "Feature"
    }, {
        "geometry": {
            "coordinates": [1.3424444444444443, 47.60466666666667],
            "type": "Point"
        },
        "properties": {
            "codetype": "HP",
            "elevation": "355",
            "name": "BLOIS CENTRE HOSPITALIER",
            "vertical_unit": "FT"
        },
        "type": "Feature"
    }, {
        "geometry": {
            "coordinates": [6.632833333333334, 44.90625],
            "type": "Point"
        },
        "properties": {
            "codetype": "HP",
            "elevation": "4372",
            "name": "BRIANCON",
            "vertical_unit": "FT"
        },
        "type": "Feature"
    }, {
        "geometry": {
            "coordinates": [6.066305555555555, 43.40302777777778],
            "type": "Point"
        },
        "properties": {
            "codetype": "HP",
            "elevation": "753",
            "name": "BRIGNOLES HOPITAL JEAN MARCEL",
            "vertical_unit": "FT"
        },
        "type": "Feature"
    }, {
        "geometry": {
            "coordinates": [6.954166666666667, 43.546388888888885],
            "type": "Point"
        },
        "properties": {
            "codetype": "HP",
            "elevation": "14",
            "name": "CANNES MANDELIEU",
            "vertical_unit": "FT"
        },
        "type": "Feature"
    }, {
        "geometry": {
            "coordinates": [5.025833333333333, 44.04666666666667],
            "type": "Point"
        },
        "properties": {
            "codetype": "HP",
            "elevation": "285",
            "name": "CARPENTRAS CENTRE HOSPITALIER",
            "vertical_unit": "FT"
        },
        "type": "Feature"
    }, {
        "geometry": {
            "coordinates": [2.2391944444444447, 43.603833333333334],
            "type": "Point"
        },
        "properties": {
            "codetype": "HP",
            "elevation": "642",
            "name": "CASTRES CENTRE HOSPITALIER",
            "vertical_unit": "FT"
        },
        "type": "Feature"
    }, {
        "geometry": {
            "coordinates": [2.26, 43.565],
            "type": "Point"
        },
        "properties": {
            "codetype": "HP",
            "elevation": "610",
            "name": "CASTRES HAUTERIVE CENTRE HOSPITALIER",
            "vertical_unit": "FT"
        },
        "type": "Feature"
    }, {
        "geometry": {
            "coordinates": [3.1599166666666667, 42.45888888888889],
            "type": "Point"
        },
        "properties": {
            "codetype": "HP",
            "elevation": "50",
            "name": "CERBERE",
            "vertical_unit": "FT"
        },
        "type": "Feature"
    }, {
        "geometry": {
            "coordinates": [6.8958055555555555, 45.938916666666664],
            "type": "Point"
        },
        "properties": {
            "codetype": "HP",
            "elevation": "3532",
            "name": "CHAMONIX SECURITE",
            "vertical_unit": "FT"
        },
        "type": "Feature"
    }, {
        "geometry": {
            "coordinates": [2.2539166666666666, 48.814277777777775],
            "type": "Point"
        },
        "properties": {
            "codetype": "HP",
            "elevation": "333",
            "name": "CLAMART HOPITAL D'INSTRUCTION DES ARMEES DE PERCY",
            "vertical_unit": "FT"
        },
        "type": "Feature"
    }, {
        "geometry": {
            "coordinates": [2.457222222222222, 48.62027777777778],
            "type": "Point"
        },
        "properties": {
            "codetype": "HP",
            "elevation": "338",
            "name": "CORBEIL-ESSONNES CENTRE HOSPITALIER SUD FRANCILIEN",
            "vertical_unit": "FT"
        },
        "type": "Feature"
    }, {
        "geometry": {
            "coordinates": [3.8821944444444445, 43.613527777777776],
            "type": "Point"
        },
        "properties": {
            "codetype": "HP",
            "elevation": "176",
            "name": "MONTPELLIER LE CORUM",
            "vertical_unit": "FT"
        },
        "type": "Feature"
    }, {
        "geometry": {
            "coordinates": [3.961388888888889, 43.583333333333336],
            "type": "Point"
        },
        "properties": {
            "codetype": "HP",
            "elevation": "17",
            "name": "MONTPELLIER MEDITERRANEE",
            "vertical_unit": "FT"
        },
        "type": "Feature"
    }, {
        "geometry": {
            "coordinates": [2.2728055555555553, 48.83327777777778],
            "type": "Point"
        },
        "properties": {
            "codetype": "HP",
            "elevation": "105",
            "name": "PARIS ISSY LES MOULINEAUX",
            "vertical_unit": "FT"
        },
        "type": "Feature"
    }, {
        "geometry": {
            "coordinates": [2.441388888888889, 48.96944444444445],
            "type": "Point"
        },
        "properties": {
            "codetype": "HP",
            "elevation": "220",
            "name": "PARIS LE BOURGET",
            "vertical_unit": "FT"
        },
        "type": "Feature"
    }, {
        "geometry": {
            "coordinates": [-0.41861111111111116, 43.38],
            "type": "Point"
        },
        "properties": {
            "codetype": "HP",
            "elevation": "616",
            "name": "PAU PYRENEES",
            "vertical_unit": "FT"
        },
        "type": "Feature"
    }, {
        "geometry": {
            "coordinates": [2.09775, 49.06569444444444],
            "type": "Point"
        },
        "properties": {
            "codetype": "HP",
            "elevation": "266",
            "name": "PONTOISE CENTRE HOSPITALIER RENE DUBOS",
            "vertical_unit": "FT"
        },
        "type": "Feature"
    }, {
        "geometry": {
            "coordinates": [8.76388888888889, 42.54972222222222],
            "type": "Point"
        },
        "properties": {
            "codetype": "HP",
            "elevation": "48",
            "name": "CALVI CENTRE HOSPITALIER",
            "vertical_unit": "FT"
        },
        "type": "Feature"
    }, {
        "geometry": {
            "coordinates": [3.4891666666666667, 44.52222222222222],
            "type": "Point"
        },
        "properties": {
            "codetype": "HP",
            "elevation": "2540",
            "name": "MENDE CENTRE HOSPITALIER",
            "vertical_unit": "FT"
        },
        "type": "Feature"
    }, {
        "geometry": {
            "coordinates": [0.022222222222222223, 42.7625],
            "type": "Point"
        },
        "properties": {
            "codetype": "AD",
            "elevation": "6562",
            "name": "COUMELY",
            "vertical_unit": "FT"
        },
        "type": "Feature"
    }, {
        "geometry": {
            "coordinates": [0.0019444444444444444, 43.07694444444445],
            "type": "Point"
        },
        "properties": {
            "codetype": "AD",
            "elevation": "2428",
            "name": "ARTIGUES",
            "vertical_unit": "FT"
        },
        "type": "Feature"
    }, {
        "geometry": {
            "coordinates": [0.6644444444444445, 42.83833333333334],
            "type": "Point"
        },
        "properties": {
            "codetype": "AD",
            "elevation": "6476",
            "name": "BACANERES",
            "vertical_unit": "FT"
        },
        "type": "Feature"
    }, {
        "geometry": {
            "coordinates": [1.275, 42.9],
            "type": "Point"
        },
        "properties": {
            "codetype": "AD",
            "elevation": "3445",
            "name": "ALEU",
            "vertical_unit": "FT"
        },
        "type": "Feature"
    }, {
        "geometry": {
            "coordinates": [0.9952777777777777, 43.15555555555555],
            "type": "Point"
        },
        "properties": {
            "codetype": "AD",
            "elevation": "1394",
            "name": "BALESTA NATURE",
            "vertical_unit": "FT"
        },
        "type": "Feature"
    }, {
        "geometry": {
            "coordinates": [6.0744444444444445, 44.31388888888888],
            "type": "Point"
        },
        "properties": {
            "codetype": "AD",
            "elevation": "2933",
            "name": "CLAMENSANE",
            "vertical_unit": "FT"
        },
        "type": "Feature"
    }, {
        "geometry": {
            "coordinates": [4.5472222222222225, 46.07805555555556],
            "type": "Point"
        },
        "properties": {
            "codetype": "AD",
            "elevation": "2461",
            "name": "CLAVEISOLLES",
            "vertical_unit": "FT"
        },
        "type": "Feature"
    }, {
        "geometry": {
            "coordinates": [2.0388888888888888, 42.65416666666667],
            "type": "Point"
        },
        "properties": {
            "codetype": "AD",
            "elevation": "7874",
            "name": "CLOS DE LEGUA",
            "vertical_unit": "FT"
        },
        "type": "Feature"
    }, {
        "geometry": {
            "coordinates": [5.9875, 45.166666666666664],
            "type": "Point"
        },
        "properties": {
            "codetype": "AD",
            "elevation": "9186",
            "name": "COL DE BELLEDONNE",
            "vertical_unit": "FT"
        },
        "type": "Feature"
    }, {
        "geometry": {
            "coordinates": [6.45, 46.020833333333336],
            "type": "Point"
        },
        "properties": {
            "codetype": "AD",
            "elevation": "5656",
            "name": "COL DE CENISE",
            "vertical_unit": "FT"
        },
        "type": "Feature"
    }, {
        "geometry": {
            "coordinates": [2.1666666666666665, 42.6625],
            "type": "Point"
        },
        "properties": {
            "codetype": "AD",
            "elevation": "6562",
            "name": "COL DE LA MARRANO",
            "vertical_unit": "FT"
        },
        "type": "Feature"
    }, {
        "geometry": {
            "coordinates": [6.145833333333334, 45.087500000000006],
            "type": "Point"
        },
        "properties": {
            "codetype": "AD",
            "elevation": "6496",
            "name": "COL DE SARENNE",
            "vertical_unit": "FT"
        },
        "type": "Feature"
    }, {
        "geometry": {
            "coordinates": [3.7888888888888888, 45.67916666666667],
            "type": "Point"
        },
        "properties": {
            "codetype": "AD",
            "elevation": "4823",
            "name": "COL DU BEAL",
            "vertical_unit": "FT"
        },
        "type": "Feature"
    }, {
        "geometry": {
            "coordinates": [6.373055555555555, 44.413888888888884],
            "type": "Point"
        },
        "properties": {
            "codetype": "AD",
            "elevation": "6201",
            "name": "COL SAINT JEAN",
            "vertical_unit": "FT"
        },
        "type": "Feature"
    }, {
        "geometry": {
            "coordinates": [2.011111111111111, 42.608333333333334],
            "type": "Point"
        },
        "properties": {
            "codetype": "AD",
            "elevation": "7710",
            "name": "COSTE DEL PALM",
            "vertical_unit": "FT"
        },
        "type": "Feature"
    }, {
        "geometry": {
            "coordinates": [5.879444444444445, 45.03777777777778],
            "type": "Point"
        },
        "properties": {
            "codetype": "AD",
            "elevation": "7251",
            "name": "CRETE DE BROUFFIERS",
            "vertical_unit": "FT"
        },
        "type": "Feature"
    }, {
        "geometry": {
            "coordinates": [6.138888888888889, 45.160555555555554],
            "type": "Point"
        },
        "properties": {
            "codetype": "AD",
            "elevation": "9869",
            "name": "GLACIER DE LA BARBARATRE",
            "vertical_unit": "FT"
        },
        "type": "Feature"
    }, {
        "geometry": {
            "coordinates": [6.983333333333333, 45.90833333333333],
            "type": "Point"
        },
        "properties": {
            "codetype": "AD",
            "elevation": "9121",
            "name": "GLACIER DE TALEFRE",
            "vertical_unit": "FT"
        },
        "type": "Feature"
    }, {
        "geometry": {
            "coordinates": [6.85, 45.84583333333334],
            "type": "Point"
        },
        "properties": {
            "codetype": "AD",
            "name": "GLACIER DU DOME DU GOUTER"
        },
        "type": "Feature"
    }, {
        "geometry": {
            "coordinates": [6.9375, 45.891666666666666],
            "type": "Point"
        },
        "properties": {
            "codetype": "AD",
            "elevation": "7382",
            "name": "GLACIER DU TACUL",
            "vertical_unit": "FT"
        },
        "type": "Feature"
    }, {
        "geometry": {
            "coordinates": [7.0, 45.983333333333334],
            "type": "Point"
        },
        "properties": {
            "codetype": "AD",
            "elevation": "10170",
            "name": "GLACIER DU TOUR",
            "vertical_unit": "FT"
        },
        "type": "Feature"
    }, {
        "geometry": {
            "coordinates": [6.322222222222222, 45.108333333333334],
            "type": "Point"
        },
        "properties": {
            "codetype": "AD",
            "elevation": "10695",
            "name": "GLACIER LOMBARD",
            "vertical_unit": "FT"
        },
        "type": "Feature"
    }, {
        "geometry": {
            "coordinates": [5.644166666666666, 44.422777777777775],
            "type": "Point"
        },
        "properties": {
            "codetype": "AD",
            "elevation": "2871",
            "name": "GRAND TERRUS",
            "vertical_unit": "FT"
        },
        "type": "Feature"
    }, {
        "geometry": {
            "coordinates": [-0.029166666666666667, 42.99388888888889],
            "type": "Point"
        },
        "properties": {
            "codetype": "AD",
            "elevation": "5512",
            "name": "HAUTACAM",
            "vertical_unit": "FT"
        },
        "type": "Feature"
    }, {
        "geometry": {
            "coordinates": [2.047222222222222, 42.47777777777778],
            "type": "Point"
        },
        "properties": {
            "codetype": "AD",
            "elevation": "4921",
            "name": "HIPPOPOTAME",
            "vertical_unit": "FT"
        },
        "type": "Feature"
    }, {
        "geometry": {
            "coordinates": [0.5022222222222222, 42.83722222222222],
            "type": "Point"
        },
        "properties": {
            "codetype": "AD",
            "elevation": "6234",
            "name": "HONTEYDE",
            "vertical_unit": "FT"
        },
        "type": "Feature"
    }, {
        "geometry": {
            "coordinates": [-0.13527777777777777, 42.9525],
            "type": "Point"
        },
        "properties": {
            "codetype": "AD",
            "elevation": "5718",
            "name": "CABALIROS",
            "vertical_unit": "FT"
        },
        "type": "Feature"
    }, {
        "geometry": {
            "coordinates": [0.545, 42.78472222222222],
            "type": "Point"
        },
        "properties": {
            "codetype": "AD",
            "elevation": "5905",
            "name": "CAP DE POUY",
            "vertical_unit": "FT"
        },
        "type": "Feature"
    }, {
        "geometry": {
            "coordinates": [0.10055555555555556, 42.89555555555555],
            "type": "Point"
        },
        "properties": {
            "codetype": "AD",
            "elevation": "5413",
            "name": "CASTILLON DE LA LAQUETTE",
            "vertical_unit": "FT"
        },
        "type": "Feature"
    }, {
        "geometry": {
            "coordinates": [0.5152777777777777, 42.863055555555555],
            "type": "Point"
        },
        "properties": {
            "codetype": "AD",
            "elevation": "5798",
            "name": "CAP DE BARRES",
            "vertical_unit": "FT"
        },
        "type": "Feature"
    }, {
        "geometry": {
            "coordinates": [7.0, 45.94166666666666],
            "type": "Point"
        },
        "properties": {
            "codetype": "AD",
            "elevation": "9350",
            "name": "GLACIER D'ARGENTIERE",
            "vertical_unit": "FT"
        },
        "type": "Feature"
    }, {
        "geometry": {
            "coordinates": [6.166666666666667, 45.1625],
            "type": "Point"
        },
        "properties": {
            "codetype": "AD",
            "elevation": "9514",
            "name": "GLACIER DE L'ETENDARD",
            "vertical_unit": "FT"
        },
        "type": "Feature"
    }, {
        "geometry": {
            "coordinates": [2.025, 42.580555555555556],
            "type": "Point"
        },
        "properties": {
            "codetype": "AD",
            "elevation": "7710",
            "name": "MONT LLARET ROC D'AUDE",
            "vertical_unit": "FT"
        },
        "type": "Feature"
    }, {
        "geometry": {
            "coordinates": [2.0388888888888888, 42.575],
            "type": "Point"
        },
        "properties": {
            "codetype": "AD",
            "elevation": "7628",
            "name": "MONT LLARET",
            "vertical_unit": "FT"
        },
        "type": "Feature"
    }, {
        "geometry": {
            "coordinates": [6.7625, 46.19027777777777],
            "type": "Point"
        },
        "properties": {
            "codetype": "AD",
            "elevation": "5709",
            "name": "MORZINE AVORIAZ",
            "vertical_unit": "FT"
        },
        "type": "Feature"
    }, {
        "geometry": {
            "coordinates": [3.9277777777777776, 44.60277777777778],
            "type": "Point"
        },
        "properties": {
            "codetype": "AD",
            "elevation": "3760",
            "name": "NOTRE DAME DES NEIGES",
            "vertical_unit": "FT"
        },
        "type": "Feature"
    }, {
        "geometry": {
            "coordinates": [0.4625, 42.79277777777778],
            "type": "Point"
        },
        "properties": {
            "codetype": "AD",
            "elevation": "6365",
            "name": "PENE DE SOULIT",
            "vertical_unit": "FT"
        },
        "type": "Feature"
    }, {
        "geometry": {
            "coordinates": [2.004166666666667, 42.53055555555555],
            "type": "Point"
        },
        "properties": {
            "codetype": "AD",
            "elevation": "6988",
            "name": "PLATEAU DE LA CALME",
            "vertical_unit": "FT"
        },
        "type": "Feature"
    }, {
        "geometry": {
            "coordinates": [0.12777777777777777, 42.91138888888889],
            "type": "Point"
        },
        "properties": {
            "codetype": "AD",
            "description": "Sommet de piste",
            "elevation": "6312",
            "name": "PLATEAU DE MONHAILLAT",
            "vertical_unit": "FT"
        },
        "type": "Feature"
    }, {
        "geometry": {
            "coordinates": [6.419444444444445, 45.12111111111111],
            "type": "Point"
        },
        "properties": {
            "codetype": "AD",
            "elevation": "5512",
            "name": "VALLOIRE BONNENUIT",
            "vertical_unit": "FT"
        },
        "type": "Feature"
    }, {
        "geometry": {
            "coordinates": [6.418055555555556, 45.44166666666666],
            "type": "Point"
        },
        "properties": {
            "codetype": "AD",
            "elevation": "6332",
            "name": "VALMOREL",
            "vertical_unit": "FT"
        },
        "type": "Feature"
    }, {
        "geometry": {
            "coordinates": [6.709722222222222, 45.60722222222223],
            "type": "Point"
        },
        "properties": {
            "codetype": "AD",
            "elevation": "6627",
            "name": "VAUGELLAZ",
            "vertical_unit": "FT"
        },
        "type": "Feature"
    }, {
        "geometry": {
            "coordinates": [6.883333333333333, 45.45055555555556],
            "type": "Point"
        },
        "properties": {
            "codetype": "AD",
            "elevation": "8005",
            "name": "VERS LE COL DU PALET",
            "vertical_unit": "FT"
        },
        "type": "Feature"
    }, {
        "geometry": {
            "coordinates": [0.2722222222222222, 42.836111111111116],
            "type": "Point"
        },
        "properties": {
            "codetype": "AD",
            "elevation": "6562",
            "name": "LA SERRE D'AULON",
            "vertical_unit": "FT"
        },
        "type": "Feature"
    }, {
        "geometry": {
            "coordinates": [2.956944444444445, 44.891666666666666],
            "type": "Point"
        },
        "properties": {
            "codetype": "AD",
            "elevation": "2913",
            "name": "LA TAILLADE",
            "vertical_unit": "FT"
        },
        "type": "Feature"
    }, {
        "geometry": {
            "coordinates": [6.830555555555556, 47.916666666666664],
            "type": "Point"
        },
        "properties": {
            "codetype": "AD",
            "elevation": "3182",
            "name": "LA TETE DES CHAMPS LE MENIL",
            "vertical_unit": "FT"
        },
        "type": "Feature"
    }, {
        "geometry": {
            "coordinates": [6.934722222222223, 45.46555555555556],
            "type": "Point"
        },
        "properties": {
            "codetype": "AD",
            "elevation": "7349",
            "name": "LA TOVIERE",
            "vertical_unit": "FT"
        },
        "type": "Feature"
    }, {
        "geometry": {
            "coordinates": [4.050277777777778, 44.634166666666665],
            "type": "Point"
        },
        "properties": {
            "codetype": "AD",
            "elevation": "4320",
            "name": "LE BEZ",
            "vertical_unit": "FT"
        },
        "type": "Feature"
    }, {
        "geometry": {
            "coordinates": [5.753611111111111, 44.80555555555555],
            "type": "Point"
        },
        "properties": {
            "codetype": "AD",
            "elevation": "2789",
            "name": "MENS",
            "vertical_unit": "FT"
        },
        "type": "Feature"
    }, {
        "geometry": {
            "coordinates": [4.195, 44.841944444444444],
            "type": "Point"
        },
        "properties": {
            "codetype": "AD",
            "elevation": "4460",
            "name": "MONT GERBIER DE JONC",
            "vertical_unit": "FT"
        },
        "type": "Feature"
    }, {
        "geometry": {
            "coordinates": [6.8486111111111105, 45.45416666666667],
            "type": "Point"
        },
        "properties": {
            "codetype": "AD",
            "elevation": "8000",
            "name": "TIGNES LE PALET",
            "vertical_unit": "FT"
        },
        "type": "Feature"
    }, {
        "geometry": {
            "coordinates": [0.8488888888888889, 42.85194444444445],
            "type": "Point"
        },
        "properties": {
            "codetype": "AD",
            "elevation": "6562",
            "name": "ULS",
            "vertical_unit": "FT"
        },
        "type": "Feature"
    }, {
        "geometry": {
            "coordinates": [1.2258333333333336, 42.78138888888889],
            "type": "Point"
        },
        "properties": {
            "codetype": "AD",
            "elevation": "5896",
            "name": "USTOU",
            "vertical_unit": "FT"
        },
        "type": "Feature"
    }, {
        "geometry": {
            "coordinates": [6.573611111111111, 45.28194444444444],
            "type": "Point"
        },
        "properties": {
            "codetype": "AD",
            "elevation": "8022",
            "name": "VAL THORENS ALTI",
            "vertical_unit": "FT"
        },
        "type": "Feature"
    }, {
        "geometry": {
            "coordinates": [6.946944444444445, 44.11],
            "type": "Point"
        },
        "properties": {
            "codetype": "AD",
            "elevation": "5680",
            "name": "VALBERG",
            "vertical_unit": "FT"
        },
        "type": "Feature"
    }, {
        "geometry": {
            "coordinates": [4.583333333333333, 45.397777777777776],
            "type": "Point"
        },
        "properties": {
            "codetype": "AD",
            "elevation": "4528",
            "name": "LA JASSERIE",
            "vertical_unit": "FT"
        },
        "type": "Feature"
    }, {
        "geometry": {
            "coordinates": [5.403333333333333, 44.49666666666667],
            "type": "Point"
        },
        "properties": {
            "codeicao": "LFJE",
            "codetype": "AD",
            "elevation": "2883",
            "name": "LA MOTTE CHALANCON",
            "vertical_unit": "FT"
        },
        "type": "Feature"
    }, {
        "geometry": {
            "coordinates": [1.1383333333333332, 42.86666666666667],
            "type": "Point"
        },
        "properties": {
            "codetype": "AD",
            "elevation": "5249",
            "name": "LA PLAGNE BOUIREX",
            "vertical_unit": "FT"
        },
        "type": "Feature"
    }, {
        "geometry": {
            "coordinates": [5.9625, 44.836666666666666],
            "type": "Point"
        },
        "properties": {
            "codetype": "AD",
            "elevation": "5184",
            "name": "LA SALETTE LES OPINIONS",
            "vertical_unit": "FT"
        },
        "type": "Feature"
    }, {
        "geometry": {
            "coordinates": [0.2997222222222222, 42.89222222222222],
            "type": "Point"
        },
        "properties": {
            "codetype": "AD",
            "elevation": "5643",
            "name": "QUATRE VEZIAUX",
            "vertical_unit": "FT"
        },
        "type": "Feature"
    }, {
        "geometry": {
            "coordinates": [5.691666666666667, 44.71222222222222],
            "type": "Point"
        },
        "properties": {
            "codetype": "AD",
            "elevation": "5000",
            "name": "SERRE MOTTAIRE",
            "vertical_unit": "FT"
        },
        "type": "Feature"
    }, {
        "geometry": {
            "coordinates": [5.9061111111111115, 44.66888888888889],
            "type": "Point"
        },
        "properties": {
            "codetype": "AD",
            "elevation": "6201",
            "name": "ST ETIENNE EN DEVOLUY",
            "vertical_unit": "FT"
        },
        "type": "Feature"
    }, {
        "geometry": {
            "coordinates": [6.586111111111111, 45.95],
            "type": "Point"
        },
        "properties": {
            "codetype": "AD",
            "elevation": "5118",
            "name": "ST ROCH MAYERES",
            "vertical_unit": "FT"
        },
        "type": "Feature"
    }, {
        "geometry": {
            "coordinates": [6.548333333333333, 44.13972222222222],
            "type": "Point"
        },
        "properties": {
            "codetype": "AD",
            "elevation": "6827",
            "name": "THORAME-HAUTE CHAMATTE",
            "vertical_unit": "FT"
        },
        "type": "Feature"
    }, {
        "geometry": {
            "coordinates": [6.56, 44.12305555555555],
            "type": "Point"
        },
        "properties": {
            "codetype": "AD",
            "elevation": "6129",
            "name": "THORAME-HAUTE LES SERRES",
            "vertical_unit": "FT"
        },
        "type": "Feature"
    }, {
        "geometry": {
            "coordinates": [6.538611111111111, 44.115],
            "type": "Point"
        },
        "properties": {
            "codetype": "AD",
            "elevation": "6398",
            "name": "THORAME-HAUTE LES SERRES",
            "vertical_unit": "FT"
        },
        "type": "Feature"
    }, {
        "geometry": {
            "coordinates": [5.233333333333333, 44.825],
            "type": "Point"
        },
        "properties": {
            "codetype": "AD",
            "elevation": "2165",
            "name": "L'ESCOULIN",
            "vertical_unit": "FT"
        },
        "type": "Feature"
    }, {
        "geometry": {
            "coordinates": [6.245833333333334, 44.99861111111111],
            "type": "Point"
        },
        "properties": {
            "codetype": "AD",
            "elevation": "11647",
            "name": "DOME DE LA LAUZE",
            "vertical_unit": "FT"
        },
        "type": "Feature"
    }, {
        "geometry": {
            "coordinates": [1.1145833333333335, 43.111111111111114],
            "type": "Point"
        },
        "properties": {
            "codetype": "AD",
            "elevation": "1300",
            "name": "FABAS",
            "vertical_unit": "FT"
        },
        "type": "Feature"
    }, {
        "geometry": {
            "coordinates": [0.4988888888888889, 42.888333333333335],
            "type": "Point"
        },
        "properties": {
            "codetype": "AD",
            "elevation": "5249",
            "name": "FERRERE",
            "vertical_unit": "FT"
        },
        "type": "Feature"
    }, {
        "geometry": {
            "coordinates": [7.163055555555556, 44.17166666666667],
            "type": "Point"
        },
        "properties": {
            "codetype": "AD",
            "elevation": "8202",
            "name": "ISOLA 2000",
            "vertical_unit": "FT"
        },
        "type": "Feature"
    }, {
        "geometry": {
            "coordinates": [5.834444444444444, 45.0],
            "type": "Point"
        },
        "properties": {
            "codetype": "AD",
            "elevation": "6700",
            "name": "L'ALPE DU GRAND SERRE",
            "vertical_unit": "FT"
        },
        "type": "Feature"
    }, {
        "geometry": {
            "coordinates": [6.253055555555555, 45.18888888888888],
            "type": "Point"
        },
        "properties": {
            "codetype": "AD",
            "elevation": "5958",
            "name": "PRAZ SAUGE ET PRE VERNAY",
            "vertical_unit": "FT"
        },
        "type": "Feature"
    }, {
        "geometry": {
            "coordinates": [4.079638888888889, 46.04263888888889],
            "type": "Point"
        },
        "properties": {
            "codetype": "HP",
            "elevation": "963",
            "name": "ROANNE CENTRE HOSPITALIER",
            "vertical_unit": "FT"
        },
        "type": "Feature"
    }, {
        "geometry": {
            "coordinates": [-0.3575, 49.203611111111115],
            "type": "Point"
        },
        "properties": {
            "codetype": "HP",
            "elevation": "283",
            "name": "CAEN CENTRE HOSPITALIER",
            "vertical_unit": "FT"
        },
        "type": "Feature"
    }, {
        "geometry": {
            "coordinates": [-3.3561111111111113, 47.75361111111111],
            "type": "Point"
        },
        "properties": {
            "codetype": "HP",
            "elevation": "100",
            "name": "LORIENT BRETAGNE SUD CENTRE HOSPITALIER",
            "vertical_unit": "FT"
        },
        "type": "Feature"
    }, {
        "geometry": {
            "coordinates": [4.0184999999999995, 49.22577777777778],
            "type": "Point"
        },
        "properties": {
            "codetype": "HP",
            "elevation": "339",
            "name": "REIMS CENTRE HOSPITALIER REGIONAL",
            "vertical_unit": "FT"
        },
        "type": "Feature"
    }, {
        "geometry": {
            "coordinates": [1.4, 43.613055555555555],
            "type": "Point"
        },
        "properties": {
            "codetype": "HP",
            "elevation": "531",
            "name": "TOULOUSE PURPAN",
            "vertical_unit": "FT"
        },
        "type": "Feature"
    }, {
        "geometry": {
            "coordinates": [2.111111111111111, 48.749722222222225],
            "type": "Point"
        },
        "properties": {
            "codetype": "HP",
            "elevation": "538",
            "name": "TOUSSUS LE NOBLE",
            "vertical_unit": "FT"
        },
        "type": "Feature"
    }, {
        "geometry": {
            "coordinates": [3.4991666666666665, 50.36083333333333],
            "type": "Point"
        },
        "properties": {
            "codetype": "HP",
            "elevation": "259",
            "name": "VALENCIENNES CENTRE HOSPITALIER",
            "vertical_unit": "FT"
        },
        "type": "Feature"
    }, {
        "geometry": {
            "coordinates": [4.615555555555555, 44.15833333333333],
            "type": "Point"
        },
        "properties": {
            "codetype": "HP",
            "elevation": "285",
            "name": "BAGNOLS SUR CEZE CENTRE HOSPITALIER",
            "vertical_unit": "FT"
        },
        "type": "Feature"
    }, {
        "geometry": {
            "coordinates": [0.9811111111111112, 47.408055555555556],
            "type": "Point"
        },
        "properties": {
            "codetype": "HP",
            "elevation": "308",
            "name": "AMBOISE CENTRE HOSPITALIER",
            "vertical_unit": "FT"
        },
        "type": "Feature"
    }, {
        "geometry": {
            "coordinates": [3.669722222222222, 43.407777777777774],
            "type": "Point"
        },
        "properties": {
            "codetype": "HP",
            "elevation": "136",
            "name": "SETE HELISTATION DES HOPITAUX DU BASSIN DE THAU",
            "vertical_unit": "FT"
        },
        "type": "Feature"
    }, {
        "geometry": {
            "coordinates": [3.6011111111111114, 49.56333333333333],
            "type": "Point"
        },
        "properties": {
            "codetype": "HP",
            "elevation": "607",
            "name": "LAON CENTRE HOSPITALIER",
            "vertical_unit": "FT"
        },
        "type": "Feature"
    }, {
        "geometry": {
            "coordinates": [-2.256388888888889, 47.26722222222222],
            "type": "Point"
        },
        "properties": {
            "codetype": "HP",
            "elevation": "169",
            "name": "SAINT NAZAIRE CENTRE HOSPITALIER",
            "vertical_unit": "FT"
        },
        "type": "Feature"
    }, {
        "geometry": {
            "coordinates": [6.6325, 45.395833333333336],
            "type": "Point"
        },
        "properties": {
            "codeiata": "CVF",
            "codeicao": "LFLJ",
            "codetype": "AD",
            "elevation": "6583",
            "name": "COURCHEVEL",
            "vertical_unit": "FT"
        },
        "type": "Feature"
    }, {
        "geometry": {
            "coordinates": [7.529166666666667, 47.59],
            "type": "Point"
        },
        "properties": {
            "codetype": "HP",
            "elevation": "885",
            "name": "BALE MULHOUSE",
            "vertical_unit": "FT"
        },
        "type": "Feature"
    }, {
        "geometry": {
            "coordinates": [6.638888888888888, 45.95],
            "type": "Point"
        },
        "properties": {
            "codeiata": "XSN",
            "codeicao": "LFHZ",
            "codetype": "AD",
            "elevation": "1756",
            "name": "SALLANCHES MONT BLANC",
            "vertical_unit": "FT"
        },
        "type": "Feature"
    }, {
        "geometry": {
            "coordinates": [1.6629999999999998, 50.41452777777778],
            "type": "Point"
        },
        "properties": {
            "codetype": "HP",
            "elevation": "152",
            "name": "RANG DU FLIERS CENTRE HOSPITALIER",
            "vertical_unit": "FT"
        },
        "type": "Feature"
    }, {
        "geometry": {
            "coordinates": [-1.5047222222222223, 49.20333333333333],
            "type": "Point"
        },
        "properties": {
            "codeicao": "LFOM",
            "codetype": "AD",
            "elevation": "96",
            "name": "LESSAY",
            "vertical_unit": "FT"
        },
        "type": "Feature"
    }, {
        "geometry": {
            "coordinates": [1.9802777777777778, 48.842222222222226],
            "type": "Point"
        },
        "properties": {
            "codeicao": "LFPX",
            "codetype": "AD",
            "elevation": "424",
            "name": "CHAVENAY VILLEPREUX",
            "vertical_unit": "FT"
        },
        "type": "Feature"
    }, {
        "geometry": {
            "coordinates": [-1.065, 44.755],
            "type": "Point"
        },
        "properties": {
            "codeicao": "LFCD",
            "codetype": "AD",
            "elevation": "64",
            "name": "ANDERNOS LES BAINS",
            "vertical_unit": "FT"
        },
        "type": "Feature"
    }, {
        "geometry": {
            "coordinates": [0.9411111111111111, 47.34055555555556],
            "type": "Point"
        },
        "properties": {
            "codeiata": "XAM",
            "codeicao": "LFEF",
            "codetype": "AD",
            "elevation": "177",
            "name": "AMBOISE DIERRE",
            "vertical_unit": "FT"
        },
        "type": "Feature"
    }, {
        "geometry": {
            "coordinates": [1.8894722222222222, 50.94127777777778],
            "type": "Point"
        },
        "properties": {
            "codetype": "HP",
            "elevation": "11",
            "name": "CALAIS CENTRE HOSPITALIER",
            "vertical_unit": "FT"
        },
        "type": "Feature"
    }, {
        "geometry": {
            "coordinates": [3.1222222222222222, 46.981388888888894],
            "type": "Point"
        },
        "properties": {
            "codetype": "HP",
            "elevation": "737",
            "name": "NEVERS CENTRE HOSPITALIER",
            "vertical_unit": "FT"
        },
        "type": "Feature"
    }, {
        "geometry": {
            "coordinates": [4.352777777777778, 48.90555555555555],
            "type": "Point"
        },
        "properties": {
            "codeicao": "LFQK",
            "codetype": "AD",
            "elevation": "321",
            "name": "CHALONS ECURY SUR COOLE",
            "vertical_unit": "FT"
        },
        "type": "Feature"
    }, {
        "geometry": {
            "coordinates": [2.073888888888889, 48.38111111111111],
            "type": "Point"
        },
        "properties": {
            "codeicao": "LFOX",
            "codetype": "AD",
            "elevation": "494",
            "name": "ETAMPES MONDESIR",
            "vertical_unit": "FT"
        },
        "type": "Feature"
    }, {
        "geometry": {
            "coordinates": [4.739166666666667, 44.58027777777778],
            "type": "Point"
        },
        "properties": {
            "codeiata": "XMK",
            "codeicao": "LFLQ",
            "codetype": "AD",
            "elevation": "241",
            "name": "MONTELIMAR ANCONE",
            "vertical_unit": "FT"
        },
        "type": "Feature"
    }, {
        "geometry": {
            "coordinates": [-1.113888888888889, 44.596944444444446],
            "type": "Point"
        },
        "properties": {
            "codeiata": "XAC",
            "codeicao": "LFCH",
            "codetype": "AD",
            "elevation": "52",
            "name": "ARCACHON LA TESTE DE BUCH",
            "vertical_unit": "FT"
        },
        "type": "Feature"
    }, {
        "geometry": {
            "coordinates": [5.8486111111111105, 45.21805555555556],
            "type": "Point"
        },
        "properties": {
            "codeicao": "LFLG",
            "codetype": "AD",
            "elevation": "724",
            "name": "GRENOBLE LE VERSOUD",
            "vertical_unit": "FT"
        },
        "type": "Feature"
    }, {
        "geometry": {
            "coordinates": [-3.1016666666666666, 47.481388888888894],
            "type": "Point"
        },
        "properties": {
            "codeicao": "LFEQ",
            "codetype": "AD",
            "elevation": "38",
            "name": "QUIBERON",
            "vertical_unit": "FT"
        },
        "type": "Feature"
    }, {
        "geometry": {
            "coordinates": [0.20027777777777778, 44.49916666666667],
            "type": "Point"
        },
        "properties": {
            "codeiata": "XMR",
            "codeicao": "LFDM",
            "codetype": "AD",
            "elevation": "110",
            "name": "MARMANDE VIRAZEIL",
            "vertical_unit": "FT"
        },
        "type": "Feature"
    }, {
        "geometry": {
            "coordinates": [-2.1033333333333335, 48.44333333333333],
            "type": "Point"
        },
        "properties": {
            "codeicao": "LFEB",
            "codetype": "AD",
            "elevation": "393",
            "name": "DINAN TRELIVAN",
            "vertical_unit": "FT"
        },
        "type": "Feature"
    }, {
        "geometry": {
            "coordinates": [-1.1788888888888889, 47.407222222222224],
            "type": "Point"
        },
        "properties": {
            "codeicao": "LFFI",
            "codetype": "AD",
            "elevation": "109",
            "name": "ANCENIS",
            "vertical_unit": "FT"
        },
        "type": "Feature"
    }, {
        "geometry": {
            "coordinates": [4.070138888888889, 43.61016666666667],
            "type": "Point"
        },
        "properties": {
            "codeicao": "LFNG",
            "codetype": "AD",
            "elevation": "5",
            "name": "MONTPELLIER CANDILLARGUES",
            "vertical_unit": "FT"
        },
        "type": "Feature"
    }, {
        "geometry": {
            "coordinates": [4.906944444444445, 44.33583333333333],
            "type": "Point"
        },
        "properties": {
            "codeicao": "LFNV",
            "codetype": "AD",
            "elevation": "472",
            "name": "VALREAS VISAN",
            "vertical_unit": "FT"
        },
        "type": "Feature"
    }, {
        "geometry": {
            "coordinates": [-1.725, 46.47555555555556],
            "type": "Point"
        },
        "properties": {
            "codeiata": "LSO",
            "codeicao": "LFOO",
            "codetype": "AD",
            "elevation": "104",
            "name": "LES SABLES D'OLONNE TALMONT",
            "vertical_unit": "FT"
        },
        "type": "Feature"
    }, {
        "geometry": {
            "coordinates": [0.3597222222222222, 49.54388888888889],
            "type": "Point"
        },
        "properties": {
            "codeicao": "LFOY",
            "codetype": "AD",
            "elevation": "423",
            "name": "LE HAVRE SAINT ROMAIN",
            "vertical_unit": "FT"
        },
        "type": "Feature"
    }, {
        "geometry": {
            "coordinates": [2.3116666666666665, 49.165],
            "type": "Point"
        },
        "properties": {
            "codeicao": "LFPA",
            "codetype": "AD",
            "elevation": "149",
            "name": "PERSAN BEAUMONT",
            "vertical_unit": "FT"
        },
        "type": "Feature"
    }, {
        "geometry": {
            "coordinates": [3.0144444444444445, 48.837500000000006],
            "type": "Point"
        },
        "properties": {
            "codeicao": "LFPK",
            "codetype": "AD",
            "elevation": "470",
            "name": "COULOMMIERS VOISINS",
            "vertical_unit": "FT"
        },
        "type": "Feature"
    }, {
        "geometry": {
            "coordinates": [6.204166666666667, 47.63861111111111],
            "type": "Point"
        },
        "properties": {
            "codeiata": "XVO",
            "codeicao": "LFQW",
            "codetype": "AD",
            "elevation": "1249",
            "name": "VESOUL FROTEY",
            "vertical_unit": "FT"
        },
        "type": "Feature"
    }, {
        "geometry": {
            "coordinates": [5.036666666666666, 49.65888888888889],
            "type": "Point"
        },
        "properties": {
            "codeiata": "XSW",
            "codeicao": "LFSJ",
            "codetype": "AD",
            "elevation": "513",
            "name": "SEDAN DOUZY",
            "vertical_unit": "FT"
        },
        "type": "Feature"
    }, {
        "geometry": {
            "coordinates": [2.3941666666666666, 47.480555555555554],
            "type": "Point"
        },
        "properties": {
            "codeicao": "LFEH",
            "codetype": "AD",
            "elevation": "630",
            "name": "AUBIGNY SUR NERE",
            "vertical_unit": "FT"
        },
        "type": "Feature"
    }, {
        "geometry": {
            "coordinates": [-0.5972222222222222, 44.69916666666666],
            "type": "Point"
        },
        "properties": {
            "codeicao": "LFCS",
            "codetype": "AD",
            "elevation": "192",
            "name": "BORDEAUX LEOGNAN SAUCATS",
            "vertical_unit": "FT"
        },
        "type": "Feature"
    }, {
        "geometry": {
            "coordinates": [-1.083888888888889, 45.49388888888889],
            "type": "Point"
        },
        "properties": {
            "codeicao": "LFDK",
            "codetype": "AD",
            "elevation": "11",
            "name": "SOULAC SUR MER",
            "vertical_unit": "FT"
        },
        "type": "Feature"
    }, {
        "geometry": {
            "coordinates": [0.10083333333333334, 47.03611111111111],
            "type": "Point"
        },
        "properties": {
            "codeicao": "LFDL",
            "codetype": "AD",
            "elevation": "313",
            "name": "LOUDUN",
            "vertical_unit": "FT"
        },
        "type": "Feature"
    }, {
        "geometry": {
            "coordinates": [2.918333333333333, 47.36027777777778],
            "type": "Point"
        },
        "properties": {
            "codeicao": "LFGH",
            "codetype": "AD",
            "elevation": "580",
            "name": "COSNE SUR LOIRE",
            "vertical_unit": "FT"
        },
        "type": "Feature"
    }, {
        "geometry": {
            "coordinates": [4.946944444444445, 47.38527777777778],
            "type": "Point"
        },
        "properties": {
            "codeiata": "DIJ",
            "codeicao": "LFGI",
            "codetype": "AD",
            "elevation": "1586",
            "name": "DIJON DAROIS",
            "vertical_unit": "FT"
        },
        "type": "Feature"
    }, {
        "geometry": {
            "coordinates": [3.248888888888889, 48.28944444444444],
            "type": "Point"
        },
        "properties": {
            "codeicao": "LFGO",
            "codetype": "AD",
            "elevation": "232",
            "name": "PONT SUR YONNE",
            "vertical_unit": "FT"
        },
        "type": "Feature"
    }, {
        "geometry": {
            "coordinates": [5.571944444444444, 49.48361111111111],
            "type": "Point"
        },
        "properties": {
            "codeicao": "LFGS",
            "codetype": "AD",
            "elevation": "1153",
            "name": "LONGUYON VILLETTE",
            "vertical_unit": "FT"
        },
        "type": "Feature"
    }, {
        "geometry": {
            "coordinates": [3.0080555555555555, 48.596944444444446],
            "type": "Point"
        },
        "properties": {
            "codeicao": "LFAI",
            "codetype": "AD",
            "elevation": "428",
            "name": "NANGIS LES LOGES",
            "vertical_unit": "FT"
        },
        "type": "Feature"
    }, {
        "geometry": {
            "coordinates": [0.5341666666666667, 48.53972222222222],
            "type": "Point"
        },
        "properties": {
            "codeicao": "LFAX",
            "codetype": "AD",
            "elevation": "886",
            "name": "MORTAGNE AU PERCHE",
            "vertical_unit": "FT"
        },
        "type": "Feature"
    }, {
        "geometry": {
            "coordinates": [0.601111111111111, 42.800555555555555],
            "type": "Point"
        },
        "properties": {
            "codeiata": "XLH",
            "codeicao": "LFCB",
            "codetype": "AD",
            "elevation": "2028",
            "name": "BAGNERES DE LUCHON",
            "vertical_unit": "FT"
        },
        "type": "Feature"
    }, {
        "geometry": {
            "coordinates": [7.0075, 48.26638888888889],
            "type": "Point"
        },
        "properties": {
            "codeiata": "XCK",
            "codeicao": "LFGY",
            "codetype": "AD",
            "elevation": "1187",
            "name": "SAINT DIE REMOMEIX",
            "vertical_unit": "FT"
        },
        "type": "Feature"
    }, {
        "geometry": {
            "coordinates": [4.716944444444445, 44.397777777777776],
            "type": "Point"
        },
        "properties": {
            "codeicao": "LFHD",
            "codetype": "AD",
            "elevation": "195",
            "name": "PIERRELATTE",
            "vertical_unit": "FT"
        },
        "type": "Feature"
    }, {
        "geometry": {
            "coordinates": [5.666388888888889, 46.27861111111111],
            "type": "Point"
        },
        "properties": {
            "codeicao": "LFLK",
            "codetype": "AD",
            "elevation": "1755",
            "name": "OYONNAX ARBENT",
            "vertical_unit": "FT"
        },
        "type": "Feature"
    }, {
        "geometry": {
            "coordinates": [4.196944444444445, 45.70666666666667],
            "type": "Point"
        },
        "properties": {
            "codeicao": "LFLZ",
            "codetype": "AD",
            "elevation": "1095",
            "name": "FEURS CHAMBEON",
            "vertical_unit": "FT"
        },
        "type": "Feature"
    }, {
        "geometry": {
            "coordinates": [4.414444444444444, 43.85305555555556],
            "type": "Point"
        },
        "properties": {
            "codeicao": "LFME",
            "codetype": "AD",
            "elevation": "197",
            "name": "NIMES COURBESSAC",
            "vertical_unit": "FT"
        },
        "type": "Feature"
    }, {
        "geometry": {
            "coordinates": [5.291777777777778, 46.20561111111111],
            "type": "Point"
        },
        "properties": {
            "codeicao": "LFHS",
            "codetype": "AD",
            "elevation": "857",
            "name": "BOURG CEYZERIAT",
            "vertical_unit": "FT"
        },
        "type": "Feature"
    }, {
        "geometry": {
            "coordinates": [2.067777777777778, 45.42055555555555],
            "type": "Point"
        },
        "properties": {
            "codeicao": "LFDE",
            "codetype": "AD",
            "elevation": "1859",
            "name": "EGLETONS",
            "vertical_unit": "FT"
        },
        "type": "Feature"
    }, {
        "geometry": {
            "coordinates": [-0.9491666666666667, 43.91583333333333],
            "type": "Point"
        },
        "properties": {
            "codeicao": "LFIL",
            "codetype": "AD",
            "elevation": "256",
            "name": "RION DES LANDES",
            "vertical_unit": "FT"
        },
        "type": "Feature"
    }, {
        "geometry": {
            "coordinates": [-0.6975, 46.903055555555554],
            "type": "Point"
        },
        "properties": {
            "codeicao": "LFJB",
            "codetype": "AD",
            "elevation": "568",
            "name": "MAULEON",
            "vertical_unit": "FT"
        },
        "type": "Feature"
    }, {
        "geometry": {
            "coordinates": [3.5075, 47.4375],
            "type": "Point"
        },
        "properties": {
            "codeicao": "LFJC",
            "codetype": "AD",
            "elevation": "714",
            "name": "CLAMECY",
            "vertical_unit": "FT"
        },
        "type": "Feature"
    }, {
        "geometry": {
            "coordinates": [1.92, 43.31111111111111],
            "type": "Point"
        },